[
    {
        "short": "A1",
        "name": "Übe-/ Vorführräume Musicalausbildung",
        "latitude": 52.305385,
        "longitude": 8.08927
    },
    {
        "short": "AA",
        "name": "Berichtswesen, Dekanat und Studiendekanate der Fakultät IuI, Finanzmanagement, Gebäude und Technik, International Faculty Office, IT Service Center, Interne Revision, Personalentwicklung, Personalmanagement, Seminarräume und Labore Fakultät IuI, VDE",
        "latitude": 52.282898,
        "longitude": 8.024963
    },
    {
        "short": "AB",
        "name": "Aula, Center for International Mobility, Center for International Students, ServiceDesk, Personalrat, Poststelle, Sitzungssaal, Studienqualitätsmittel, Wilhelm-Müller-Hörsaal",
        "latitude": 52.28235,
        "longitude": 8.02503
    },
    {
        "short": "AC",
        "name": "Labore und Hörsäle der Fakultät IuI",
        "latitude": 52.282608,
        "longitude": 8.023913
    },
    {
        "short": "AD",
        "name": "Labore und Hörsäle der Fakultät IuI",
        "latitude": 52.284527,
        "longitude": 8.023994
    },
    {
        "short": "AE",
        "name": "AStA, Fachschaft IuI",
        "latitude": 52.284191,
        "longitude": 8.024054
    },
    {
        "short": "AF",
        "name": "Berufungen und Recruitment, Beschaffung, Gleichstellungsbüro, Hochschulförderung, LearningCenter, Kommunikation, Mindful Leadership, Präsidium, Prozessmanagement, Studium und Lehre, Studierendensekretariat, Recht",
        "latitude": 52.282251,
        "longitude": 8.023777
    },
    {
        "short": "BA",
        "name": "Fakultät WiSo, Verbund Hebammenforschung",
        "latitude": 52.286815,
        "longitude": 8.023956
    },
    {
        "short": "BB",
        "name": "Fakultät IuI, Science to Business GmbH",
        "latitude": 52.286838,
        "longitude": 8.023706
    },
    {
        "short": "BC",
        "name": "Fakultät IuI, Science to Business GmbH",
        "latitude": 52.286959,
        "longitude": 8.024068
    },
    {
        "short": "CB",
        "name": "Büros der Fakultät WiSo, Dekanat Fakultät WiSo (CB 0214), International Faculty Office, Professional School, Block 2",
        "latitude": 52.277772,
        "longitude": 8.024087
    },
    {
        "short": "CC",
        "name": "Gesellschaftliches Engagement, Block 3",
        "latitude": 52.277808,
        "longitude": 8.024905
    },
    {
        "short": "CD",
        "name": "Hörsäle und Büros der Fakultät WiSo, Seminarräume, Block 5",
        "latitude": 52.277874,
        "longitude": 8.025485
    },
    {
        "short": "CE",
        "name": "Hörsäle und Büros der Fakultät WiSo, Seminarräume, Block 6",
        "latitude": 52.277854,
        "longitude": 8.025854
    },
    {
        "short": "CF",
        "name": "Hörsäle und Büros der Fakultät WiSo, Seminarräume, Block 7",
        "latitude": 52.277880,
        "longitude": 8.026424
    },
    {
        "short": "CG",
        "name": "Hörsäle und Büros der Fakultät WiSo, Seminarräume, Block 12",
        "latitude": 52.277621,
        "longitude": 8.027196
    },
    {
        "short": "CH",
        "name": "Hörsäle und Büros der Fakultät WiSo, Seminarräume, Block 20",
        "latitude": 52.277253,
        "longitude": 8.027300
    },
    {
        "short": "CJ",
        "name": "Hörsäle und Büros der Fakultät WiSo, Seminarräume, Block 17, Block 18, Block 19",
        "latitude": 52.277184,
        "longitude": 8.026846
    },
    {
        "short": "CK",
        "name": "Caprivi-Lounge (CaLo), Block 16",
        "latitude": 52.277148,
        "longitude": 8.026156
    },
    {
        "short": "CL",
        "name": "Lernzonen, Block 13",
        "latitude": 52.277109,
        "longitude": 8.025257
    },
    {
        "short": "CN",
        "name": "Hörsäle und Büros der Fakultät WiSo",
        "latitude": 52.27732,
        "longitude": 8.02340
    },
    {
        "short": "EA",
        "name": "Industrial Design Werstatt, Proberäume IfM, Bewegungslabor und Ultraschall WiSo",
        "latitude": 52.295851,
        "longitude": 8.027780
    },
    {
        "short": "ED",
        "name": "Büro- u. Seminarräume",
        "latitude": 52.301546,
        "longitude": 8.026899
    },
    {
        "short": "FA",
        "name": "Institut für Musik, INAP/O, Hebammenlehranstalt, Frauenklinik",
        "latitude": 52.275770,
        "longitude": 8.021595
    },
    {
        "short": "FB",
        "name": "Institut für Musik - Gartenhaus",
        "latitude": 52.276194,
        "longitude": 8.021278
    },
    {
        "short": "HA",
        "name": "Hörsaalgebäude und Labore, 101",
        "latitude": 52.303089,
        "longitude": 8.038896
    },
    {
        "short": "HB",
        "name": "Hörsaalgebäude und Labore, 102",
        "latitude": 52.303313,
        "longitude": 8.039355
    },
    {
        "short": "HC",
        "name": "Fakultätsleitung Agrarwissenschaften und Landschaftsarchitektur, Bürogebäude, 103, Dekanat",
        "latitude": 52.303250,
        "longitude": 8.040261
    },
    {
        "short": "HD",
        "name": "Studierendensekretariat, Aula (HD 0001), IT-Center, Hörsäle und Labore, 104",
        "latitude": 52.303559,
        "longitude": 8.040849
    },
    {
        "short": "HE",
        "name": "Bürogebäude, AStA-Büro, Fachschaft AuL, 105",
        "latitude": 52.303459,
        "longitude": 8.041274
    },
    {
        "short": "HF",
        "name": "Hörsäle, 115",
        "latitude": 52.304860,
        "longitude": 8.040606
    },
    {
        "short": "HH",
        "name": "Hörsaal- und Bürogebäude, 108, Michelhof",
        "latitude": 52.304823,
        "longitude": 8.038435
    },
    {
        "short": "HK",
        "name": "Betriebswerkstatt, 106, Michelhof",
        "latitude": 52.304504,
        "longitude": 8.038073
    },
    {
        "short": "HL",
        "name": "Labor- und Bürogebäude, 107, Michelhof",
        "latitude": 52.304817,
        "longitude": 8.038007
    },
    {
        "short": "HM",
        "name": "Labor für Technik, Hörsäle, 118",
        "latitude": 52.304684,
        "longitude": 8.037252
    },
    {
        "short": "HN",
        "name": "Betriebsgebäude, 119",
        "latitude": 52.304304,
        "longitude": 8.037395
    },
    {
        "short": "HO",
        "name": "Gewächshäuser, 120, Gewächshaus",
        "latitude": 52.303747,
        "longitude": 8.037170
    },
    {
        "short": "HP",
        "name": "Hörsaalgebäude und Labore, 121",
        "latitude": 52.303665,
        "longitude": 8.038192
    },
    {
        "short": "HQ",
        "name": "Container",
        "latitude": 52.304059,
        "longitude": 8.038712
    },
    {
        "short": "HR",
        "name": "Hörsaalgebäude, Bibliothek, Bibliotheks- und Seminargebäude",
        "latitude": 52.303034,
        "longitude": 8.037819
    },
    {
        "short": "HT",
        "name": "Maschinenhalle, 117, Waschplatz mit Lager",
        "latitude": 52.305060,
        "longitude": 8.037809
    },
    {
        "short": "HU",
        "name": "Betriebsgebäude, 113, alte Heizung + Nebenräume",
        "latitude": 52.306643,
        "longitude": 8.038647
    },
    {
        "short": "HV",
        "name": "Gewächshäuser, 114, Gewächshaus",
        "latitude": 52.306533,
        "longitude": 8.039116
    },
    {
        "short": "HX",
        "name": "Gewächshäuser, Gewächshaus",
        "latitude": 52.30619,
        "longitude": 8.038733
    },
    {
        "short": "HY",
        "name": "Gewächshäuser, Gewächshaus",
        "latitude": 52.306202,
        "longitude": 8.039095
    },
    {
        "short": "ICO",
        "name": "Inonovations Centrum Osnabrück, EU-Büro, Forschung und Kooperation, Transfer- und Innovationsmanagement (TIM), ehem. Schmied im Hone, Altbau Sanierung",
        "latitude": 52.287882,
        "longitude": 8.018622
    },
    {
        "short": "OS",
        "name": "Gebäude „Schmied im Hone“",
        "latitude": 52.308922,
        "longitude": 8.037225
    },
    {
        "short": "OT",
        "name": "Gebäude „Schmied im Hone“, Neubau Technikum",
        "latitude": 52.309221,
        "longitude": 8.037263
    },
    {
        "short": "RA",
        "name": "Seminarräume Fak. WiSo und Inst.für Musik",
        "latitude": 52.268789,
        "longitude": 8.039091
    },
    {
        "short": "RC",
        "name": "Learning Center, Projekt Voneinander Lernen lernen",
        "latitude": 52.269398,
        "longitude": 8.038875
    },
    {
        "short": "S1",
        "name": "Gebäude Sedanstr. 1 (Fakultät WiSo), Büroräume",
        "latitude": 52.286541,
        "longitude": 8.026882
    },
    {
        "short": "SB",
        "name": "Hörsäle und Labore der Fakultät IuI, Selbstlernzone im 4. OG",
        "latitude": 52.283635,
        "longitude": 8.020016
    },
    {
        "short": "SC",
        "name": "Kindertagesstätte „Fingerhut“",
        "latitude": 52.284320,
        "longitude": 8.020006
    },
    {
        "short": "SD",
        "name": "Hörsäle und Labore der Fakultät IuI",
        "latitude": 52.284138,
        "longitude": 8.020813
    },
    {
        "short": "SE",
        "name": "Hörsäle und Labore der Fakultät IuI",
        "latitude": 52.283663,
        "longitude": 8.021120
    },
    {
        "short": "SF",
        "name": "Hörsäle und Labore der Fakultät IuI",
        "latitude": 52.283254,
        "longitude": 8.020764
    },
    {
        "short": "SG",
        "name": "Hörsäle und Labore der Fakultät IuI",
        "latitude": 52.283235,
        "longitude": 8.020375
    },
    {
        "short": "SH",
        "name": "Hörsäle und Labore der Fakultät IuI, Neubau Kunststoff - und Schweißtechnik",
        "latitude": 52.284555,
        "longitude": 8.020849
    },
    {
        "short": "SI",
        "name": "Medienlabor, EDV-Schulungszentrum, Hörsäle und Seminarräume, Neubau technische Informatik",
        "latitude": 52.283965,
        "longitude": 8.022991
    },
    {
        "short": "SJ",
        "name": "Hörsäle und Labore der Fakultät IuI, FB Materialdesign und Werkstoffzuverlässigkeit",
        "latitude": 52.284802,
        "longitude": 8.020780
    },
    {
        "short": "SK",
        "name": "Science to Business",
        "latitude": 52.284773,
        "longitude": 8.020193
    },
    {
        "short": "SL",
        "name": "Hörsäle und Seminarräume, Neues Hörsaalgebäude",
        "latitude": 52.285102,
        "longitude": 8.022342
    },
    {
        "short": "SN",
        "name": "Ignition Racing Team, 9 (ehem.Woolwich-Kaserne)",
        "latitude": 52.285560,
        "longitude": 8.021464
    },
    {
        "short": "SO",
        "name": "6 (ehem.Woolwich-Kaserne), Büroräume",
        "latitude": 52.286852,
        "longitude": 8.020779
    },
    {
        "short": "SP",
        "name": "Roboterlabor, 16 (ehem.Woolwich-Kaserne)",
        "latitude": 52.286297,
        "longitude": 8.020684
    },
    {
        "short": "SR",
        "name": "92, Bürocontainer",
        "latitude": 52.285558,
        "longitude": 8.020589
    },
    {
        "short": "WA",
        "name": "Waldhof",
        "latitude": 52.321593,
        "longitude": 8.040646
    },
    {
        "short": "WB",
        "name": "Waldhof",
        "latitude": 52.321670,
        "longitude": 8.041047
    },
    {
        "short": "WD",
        "name": "Waldhof, WABE-Zentrum",
        "latitude": 52.321936,
        "longitude": 8.041689
    },
    {
        "short": "WE",
        "name": "Waldhof",
        "latitude": 52.321573,
        "longitude": 8.040113
    },
    {
        "short": "WF",
        "name": "Hühnerstall, Waldhof",
        "latitude": 52.320990,
        "longitude": 8.040095
    },
    {
        "short": "WG",
        "name": "Waldhof",
        "latitude": 52.320692,
        "longitude": 8.040145
    },
    {
        "short": "WH",
        "name": "Halle, Waldhof",
        "latitude": 52.320707,
        "longitude": 8.040573
    },
    {
        "short": "WI",
        "name": "Waldhof",
        "latitude": 52.322041,
        "longitude": 8.040208
    },
    {
        "short": "KA",
        "name": "Hochschulbibliothek, ehem. Eisenbahnausbesserungswerk, Bibliothek",
        "latitude": 52.519420,
        "longitude": 7.322393
    },
    {
        "short": "KB",
        "name": "Kommunikationsmanagement",
        "latitude": 52.519420,
        "longitude": 7.322393
    },
    {
        "short": "KC",
        "name": "Ingenieurwissenschaften und Dekanat",
        "latitude": 52.519420,
        "longitude": 7.322393
    },
    {
        "short": "KD",
        "name": "Seminarräume, Audimax",
        "latitude": 52.519420,
        "longitude": 7.322393
    },
    {
        "short": "KE",
        "name": "Seminarräume",
        "latitude": 52.519420,
        "longitude": 7.322393
    },
    {
        "short": "KF",
        "name": "Informatik/Mathematik",
        "latitude": 52.519420,
        "longitude": 7.322393
    },
    {
        "short": "KG",
        "name": "Betriebswirtschaft",
        "latitude": 52.519420,
        "longitude": 7.322393
    },
    {
        "short": "KH",
        "name": "Studentische Selbstverwaltung",
        "latitude": 52.519420,
        "longitude": 7.322393
    },
    {
        "short": "KT",
        "name": "Technikgebäude, Technik-\"Container\"",
        "latitude": 52.518579,
        "longitude": 7.321255
    },
    {
        "short": "LB",
        "name": "Burgcenter, Inst. für Theaterpädagogik",
        "latitude": 52.523105,
        "longitude": 7.318732
    },
    {
        "short": "LC",
        "name": "An der Kokenmühle 9",
        "latitude": 52.517427,
        "longitude": 7.319078
    },
    {
        "short": "LK",
        "name": "Duale Studiengänge, IT-Zentrum Lingen, (Halle III, IT-Center Emsland) Fakultät MKT, IT",
        "latitude": 52.519263,
        "longitude": 7.322913
    },
    {
        "short": "LL",
        "name": "",
        "latitude": 52.519867,
        "longitude": 7.316132
    },
    {
        "short": "MA",
        "name": "Seminarräume und Labore Fakultät IuI, Wellington School, InMove",
        "latitude": 52.286941,
        "longitude": 8.018373
    },
    {
        "short": "X1",
        "name": "German Musical Academy",
        "latitude": 52.265017,
        "longitude": 8.053300
    }
]
