[
    {
        "short": "A",
        "name": "A-Trakt",
        "latitude": 52.72094,
        "longitude": 8.29348
    },
    {
        "short": "B",
        "name": "B-Trakt",
        "latitude": 52.72075,
        "longitude": 8.29315
    },
    {
        "short": "E",
        "name": "E-Trakt, EDV-Räume",
        "latitude": 52.72093,
        "longitude": 8.29409
    },
    {
        "short": "F",
        "name": "F-Trakt",
        "latitude": 52.72148,
        "longitude": 8.29416
    },
    {
        "short": "R",
        "name": "R-Trakt",
        "latitude": 52.72174,
        "longitude": 8.29295
    },
    {
        "short": "Q",
        "name": "Q-Trakt",
        "latitude": 52.7212,
        "longitude": 8.2953
    },
    {
        "short": "L",
        "name": "L-Trakt",
        "latitude": 52.72071,
        "longitude": 8.29587
    },
    {
        "short": "N",
        "name": "N-Trakt",
        "latitude": 52.72014,
        "longitude": 8.29606
    },
    {
        "short": "W",
        "name": "W-Trakt",
        "latitude": 52.71937,
        "longitude": 8.29518
    },
    {
        "short": "K",
        "name": "K-Trakt",
        "latitude": 52.71935,
        "longitude": 8.29539
    },
    {
        "short": "U",
        "name": "U-Trakt",
        "latitude": 52.71884,
        "longitude": 8.29471
    },
    {
        "short": "D",
        "name": "D-Trakt",
        "latitude": 52.72126,
        "longitude": 8.29312
    },
    {
        "short": "MI",
        "name": "Interimsmensa",
        "latitude": 52.71879,
        "longitude": 8.29542
    },
    {
        "short": "S",
        "name": "S-Trakt",
        "latitude": 52.7202,
        "longitude": 8.29376
    },
    {
        "short": "T",
        "name": "T-Trakt, Bürotrakt",
        "latitude": 52.72836,
        "longitude": 8.28298
    },
    {
        "short": "J",
        "name": "J-Trakt",
        "latitude": 52.7297,
        "longitude": 8.30092
    },
    {
        "short": "H",
        "name": "H-Trakt",
        "latitude": 52.72853,
        "longitude": 8.28773
    },
    {
        "short": "X",
        "name": "X-Trakt",
        "latitude": 52.73375,
        "longitude": 8.29174
    },
    {
        "short": "Y",
        "name": "Y-Trakt",
        "latitude": 52.72948,
        "longitude": 8.28232
    },
    {
        "short": "C",
        "name": "C-Trakt",
        "latitude": 52.72814,
        "longitude": 8.28296
    }
]
